[{ "type": "Feature", "id": "p_hus.1", "geometry": { "type": "Point", "coordinates": [12.58268744719164, 55.68308951370529] }, "geometry_name": "wkb_geometry", "properties": { "id": 106, "vejkode": "0024", "vejnavn": "Adelgade", "husnr": "7-9", "postdistrikt": null, "antal_pladser": null, "ejer_status": "Privat", "p_hus_type": "0", "type_beskrivelse": "", "opret_dato": null, "ret_dato": null, "bemaerkning": "OnePark" } }, { "type": "Feature", "id": "p_hus.2", "geometry": { "type": "Point", "coordinates": [12.582287325059744, 55.68268042120522] }, "geometry_name": "wkb_geometry", "properties": { "id": 8, "vejkode": "0024", "vejnavn": "Adelgade", "husnr": "5", "postdistrikt": "1304 København K", "antal_pladser": 92, "ejer_status": "Privat", "p_hus_type": "2", "type_beskrivelse": "P-Kælder", "opret_dato": "2010-02-18T23:00:00Z", "ret_dato": null, "bemaerkning": "Adelgade 5-7, Q-park." } }, { "type": "Feature", "id": "p_hus.3", "geometry": { "type": "Point", "coordinates": [12.568390493094558, 55.6750773715323] }, "geometry_name": "wkb_geometry", "properties": { "id": 2, "vejkode": "0148", "vejnavn": "H.C. Andersens Boulevard", "husnr": "18", "postdistrikt": "1550 København V", "antal_pladser": 137, "ejer_status": "Privat", "p_hus_type": "2", "type_beskrivelse": "P-Kælder", "opret_dato": "2001-05-29T22:00:00Z", "ret_dato": "2013-08-19T22:00:00Z", "bemaerkning": "H.C. Andersens Boulevard, Industriens Hus" } }, { "type": "Feature", "id": "p_hus.4", "geometry": { "type": "Point", "coordinates": [12.584113225182094, 55.67847304803938] }, "geometry_name": "wkb_geometry", "properties": { "id": 6, "vejkode": "0264", "vejnavn": "Asylgade", "husnr": "1", "postdistrikt": "1064 København K", "antal_pladser": 105, "ejer_status": "Privat", "p_hus_type": "1", "type_beskrivelse": "P-Hus", "opret_dato": "2001-05-29T22:00:00Z", "ret_dato": null, "bemaerkning": "Asylgade 1, Danske Bank." } }, { "type": "Feature", "id": "p_hus.5", "geometry": { "type": "Point", "coordinates": [12.555695074664309, 55.68417438048765] }, "geometry_name": "wkb_geometry", "properties": { "id": 52, "vejkode": "0628", "vejnavn": "Blågårdsgade", "husnr": "57", "postdistrikt": "2200 København N", "antal_pladser": 215, "ejer_status": "Kommune", "p_hus_type": "1", "type_beskrivelse": "P-Hus", "opret_dato": "2011-09-21T13:49:00Z", "ret_dato": "2011-09-21T13:53:00Z", "bemaerkning": "Det Grønne P-hus, ibrugtaget januar 2010 og drevet af Center for Parkering." } }, { "type": "Feature", "id": "p_hus.6", "geometry": { "type": "Point", "coordinates": [12.58451250448009, 55.68342357749668] }, "geometry_name": "wkb_geometry", "properties": { "id": 107, "vejkode": "0716", "vejnavn": "Borgergade", "husnr": "7-9", "postdistrikt": null, "antal_pladser": null, "ejer_status": "Privat", "p_hus_type": "0", "type_beskrivelse": "", "opret_dato": null, "ret_dato": null, "bemaerkning": "OnePark" } }, { "type": "Feature", "id": "p_hus.7", "geometry": { "type": "Point", "coordinates": [12.583088623374682, 55.67886909161786] }, "geometry_name": "wkb_geometry", "properties": { "id": 4, "vejkode": "0832", "vejnavn": "Bremerholm", "husnr": "6", "postdistrikt": "1069 København K", "antal_pladser": 214, "ejer_status": "Privat", "p_hus_type": "1", "type_beskrivelse": "P-Hus", "opret_dato": "2001-05-29T22:00:00Z", "ret_dato": null, "bemaerkning": "Magasin, Bremerholm" } }, { "type": "Feature", "id": "p_hus.8", "geometry": { "type": "Point", "coordinates": [12.57867314207309, 55.67235516809748] }, "geometry_name": "wkb_geometry", "properties": { "id": 109, "vejkode": "0914", "vejnavn": "Bryghuspladsen", "husnr": null, "postdistrikt": null, "antal_pladser": 350, "ejer_status": "Privat", "p_hus_type": "0", "type_beskrivelse": "", "opret_dato": null, "ret_dato": "2019-10-09T22:00:00Z", "bemaerkning": "BLOX Parkeringshus" } }, { "type": "Feature", "id": "p_hus.9", "geometry": { "type": "Point", "coordinates": [12.53638818652269, 55.70522755910492] }, "geometry_name": "wkb_geometry", "properties": { "id": 99, "vejkode": "0984", "vejnavn": "Bygmestervej", "husnr": "11", "postdistrikt": "2400 København NV", "antal_pladser": 180, "ejer_status": "Privat", "p_hus_type": "2", "type_beskrivelse": "P-Kælder", "opret_dato": "2017-08-16T22:00:00Z", "ret_dato": "2017-08-16T22:00:00Z", "bemaerkning": "P-huset tilbyder cykelparkering, for dem der parkerer bil i anlægget og ønsker at transportere sig videre på cykel" } }, { "type": "Feature", "id": "p_hus.10", "geometry": { "type": "Point", "coordinates": [12.573653501037692, 55.673626120274015] }, "geometry_name": "wkb_geometry", "properties": { "id": 110, "vejkode": "1276", "vejnavn": "Dantes Plads", "husnr": null, "postdistrikt": null, "antal_pladser": 214, "ejer_status": null, "p_hus_type": "7", "type_beskrivelse": "", "opret_dato": "2019-10-09T22:00:00Z", "ret_dato": null, "bemaerkning": "Dantes Plads (koommende)" } }, { "type": "Feature", "id": "p_hus.11", "geometry": { "type": "Point", "coordinates": [12.588435643558675, 55.68330403523282] }, "geometry_name": "wkb_geometry", "properties": { "id": 7, "vejkode": "1356", "vejnavn": "Dronningens Tværgade", "husnr": "4", "postdistrikt": "1302 København K", "antal_pladser": 320, "ejer_status": "Privat", "p_hus_type": "1", "type_beskrivelse": "P-Hus", "opret_dato": "2001-05-29T22:00:00Z", "ret_dato": null, "bemaerkning": "Jeudan Parkering, Dronningens Tværgade" } }, { "type": "Feature", "id": "p_hus.12", "geometry": { "type": "Point", "coordinates": [12.58162337622236, 55.68075912424795] }, "geometry_name": "wkb_geometry", "properties": { "id": 98, "vejkode": "2104", "vejnavn": "Gammel Mønt", "husnr": "1-3", "postdistrikt": "1117 København K", "antal_pladser": 300, "ejer_status": "Privat", "p_hus_type": "1", "type_beskrivelse": "P-Hus", "opret_dato": "2013-07-31T22:00:00Z", "ret_dato": "2013-07-31T22:00:00Z", "bemaerkning": "Jeudan Parkering, Gammel Mønt" } }, { "type": "Feature", "id": "p_hus.13", "geometry": { "type": "Point", "coordinates": [12.55048035652659, 55.68732657688308] }, "geometry_name": "wkb_geometry", "properties": { "id": 104, "vejkode": "2604", "vejnavn": "Hans Tavsens Gade", "husnr": "5", "postdistrikt": null, "antal_pladser": 18, "ejer_status": null, "p_hus_type": "5", "type_beskrivelse": "", "opret_dato": null, "ret_dato": null, "bemaerkning": "Åbnede kommunale p-pladser. Adgangskontrol ved indkørsel fra ..." } }, { "type": "Feature", "id": "p_hus.14", "geometry": { "type": "Point", "coordinates": [12.563434375186208, 55.668893325597395] }, "geometry_name": "wkb_geometry", "properties": { "id": 57, "vejkode": "3272", "vejnavn": "Ingerslevsgade", "husnr": null, "postdistrikt": "1705 København V", "antal_pladser": 192, "ejer_status": "Privat", "p_hus_type": "1", "type_beskrivelse": "P-Hus", "opret_dato": "2017-08-16T22:00:00Z", "ret_dato": "2017-08-16T22:00:00Z", "bemaerkning": "DGI-byen indkørsel fra Ingerslevsgade" } }, { "type": "Feature", "id": "p_hus.15", "geometry": { "type": "Point", "coordinates": [12.568404237139843, 55.68251121101974] }, "geometry_name": "wkb_geometry", "properties": { "id": 1, "vejkode": "3310", "vejnavn": "Israels Plads", "husnr": "1", "postdistrikt": "1361 København K", "antal_pladser": 1150, "ejer_status": "Privat", "p_hus_type": "4", "type_beskrivelse": "", "opret_dato": "2001-05-29T22:00:00Z", "ret_dato": "2013-08-19T22:00:00Z", "bemaerkning": "Israels Plads, Q-park Indkørsel fra Linnésgade" } }, { "type": "Feature", "id": "p_hus.16", "geometry": { "type": "Point", "coordinates": [12.545028885876294, 55.68981538482168] }, "geometry_name": "wkb_geometry", "properties": { "id": 103, "vejkode": "3332", "vejnavn": "Jagtvej", "husnr": "34", "postdistrikt": null, "antal_pladser": 28, "ejer_status": null, "p_hus_type": "5", "type_beskrivelse": "", "opret_dato": null, "ret_dato": null, "bemaerkning": "Åbnede kommunale p-pladser. Adgangskontrol ved indkørsel fra ..." } }, { "type": "Feature", "id": "p_hus.17", "geometry": { "type": "Point", "coordinates": [12.58574292261366, 55.68308805017006] }, "geometry_name": "wkb_geometry", "properties": { "id": 10, "vejkode": "4112", "vejnavn": "Landgreven", "husnr": "10", "postdistrikt": "1301 København K", "antal_pladser": 121, "ejer_status": "Privat", "p_hus_type": "1", "type_beskrivelse": "P-Hus", "opret_dato": "2010-02-18T23:00:00Z", "ret_dato": null, "bemaerkning": "Landgreven, Europark" } }, { "type": "Feature", "id": "p_hus.18", "geometry": { "type": "Point", "coordinates": [12.579871161054182, 55.66455924552435] }, "geometry_name": "wkb_geometry", "properties": { "id": 54, "vejkode": "4208", "vejnavn": "Leifsgade", "husnr": "9", "postdistrikt": "2300 København S", "antal_pladser": 407, "ejer_status": "Kommune", "p_hus_type": "3", "type_beskrivelse": "Underjordisk P-anlæg", "opret_dato": "2011-09-21T14:13:00Z", "ret_dato": null, "bemaerkning": "Underjordisk P-anlæg, ibrugtaget februar 2011 og drevet af Center for Parkering." } }, { "type": "Feature", "id": "p_hus.19", "geometry": { "type": "Point", "coordinates": [12.609064458113941, 55.66316927974118] }, "geometry_name": "wkb_geometry", "properties": { "id": 105, "vejkode": "4456", "vejnavn": "Lybækgade", "husnr": "20", "postdistrikt": "2300 København S", "antal_pladser": 30, "ejer_status": null, "p_hus_type": "5", "type_beskrivelse": "", "opret_dato": null, "ret_dato": null, "bemaerkning": "Åbnede kommunale p-pladser. Adgangskontrol ved indkørsel fra ..." } }, { "type": "Feature", "id": "p_hus.20", "geometry": { "type": "Point", "coordinates": [12.560670163895672, 55.676721900132314] }, "geometry_name": "wkb_geometry", "properties": { "id": 3, "vejkode": "5128", "vejnavn": "Nyropsgade", "husnr": "36", "postdistrikt": "1602 København V", "antal_pladser": 365, "ejer_status": "Privat", "p_hus_type": "2", "type_beskrivelse": "P-Kælder", "opret_dato": "2001-05-29T22:00:00Z", "ret_dato": "2013-08-19T22:00:00Z", "bemaerkning": "Indkøsel ved Nyropsgade 36" } }, { "type": "Feature", "id": "p_hus.21", "geometry": { "type": "Point", "coordinates": [12.561251427921016, 55.69219515016364] }, "geometry_name": "wkb_geometry", "properties": { "id": 56, "vejkode": "5188", "vejnavn": "Nørre Allé", "husnr": "2D", "postdistrikt": "2200 København N", "antal_pladser": 164, "ejer_status": "Kommune", "p_hus_type": "3", "type_beskrivelse": "Underjordisk P-anlæg", "opret_dato": "2011-09-21T14:33:00Z", "ret_dato": null, "bemaerkning": "Underjordisk P-anlæg, ibrugtaget juni 2010 og drevet af Center for Parkering." } }, { "type": "Feature", "id": "p_hus.22", "geometry": { "type": "Point", "coordinates": [12.576818487517682, 55.67122653636533] }, "geometry_name": "wkb_geometry", "properties": { "id": 111, "vejkode": "5660", "vejnavn": "Puggaardsgade", "husnr": null, "postdistrikt": null, "antal_pladser": 155, "ejer_status": "Privat", "p_hus_type": "7", "type_beskrivelse": "", "opret_dato": "2019-10-09T22:00:00Z", "ret_dato": null, "bemaerkning": "Under Langebro (koomende)" } }, { "type": "Feature", "id": "p_hus.23", "geometry": { "type": "Point", "coordinates": [12.57954803495138, 55.70843114487687] }, "geometry_name": "wkb_geometry", "properties": { "id": 101, "vejkode": "5716", "vejnavn": "Randersgade", "husnr": "71", "postdistrikt": "2100 København Ø", "antal_pladser": 6, "ejer_status": null, "p_hus_type": "5", "type_beskrivelse": "", "opret_dato": null, "ret_dato": null, "bemaerkning": "Åbnede kommunale p-pladser. Adgangskontrol ved indkørsel fra ..." } }, { "type": "Feature", "id": "p_hus.24", "geometry": { "type": "Point", "coordinates": [12.580856843279113, 55.70556228821215] }, "geometry_name": "wkb_geometry", "properties": { "id": 102, "vejkode": "5716", "vejnavn": "Randersgade", "husnr": "34", "postdistrikt": "2100 København Ø", "antal_pladser": 16, "ejer_status": null, "p_hus_type": "5", "type_beskrivelse": "", "opret_dato": null, "ret_dato": null, "bemaerkning": "Åbnede kommuneal p-pladser. Adgangskontrol ved indkørsel fra ..." } }, { "type": "Feature", "id": "p_hus.25", "geometry": { "type": "Point", "coordinates": [12.543254363515572, 55.66897769124984] }, "geometry_name": "wkb_geometry", "properties": { "id": 31, "vejkode": "5792", "vejnavn": "Rejsbygade", "husnr": "8B", "postdistrikt": "1759 København V", "antal_pladser": 77, "ejer_status": "Kommune", "p_hus_type": "1", "type_beskrivelse": "P-Hus", "opret_dato": "2011-09-08T08:50:48Z", "ret_dato": "2011-09-08T09:22:39Z", "bemaerkning": "Ibrugtaget februar 2008 og drevet af Center for Parkering." } }, { "type": "Feature", "id": "p_hus.26", "geometry": { "type": "Point", "coordinates": [12.567176379844057, 55.69176488573952] }, "geometry_name": "wkb_geometry", "properties": { "id": 78, "vejkode": "6040", "vejnavn": "Ryesgade", "husnr": "22", "postdistrikt": "2200 København N", "antal_pladser": 56, "ejer_status": "Kommune", "p_hus_type": "1", "type_beskrivelse": "P-Hus", "opret_dato": "2013-04-30T22:00:00Z", "ret_dato": "2013-04-30T22:00:00Z", "bemaerkning": "Sølund" } }, { "type": "Feature", "id": "p_hus.27", "geometry": { "type": "Point", "coordinates": [12.565611062343194, 55.69057204953302] }, "geometry_name": "wkb_geometry", "properties": { "id": 77, "vejkode": "6040", "vejnavn": "Ryesgade", "husnr": "16", "postdistrikt": "2200 København N", "antal_pladser": 25, "ejer_status": "Kommune", "p_hus_type": "1", "type_beskrivelse": "P-Hus", "opret_dato": "2013-04-30T22:00:00Z", "ret_dato": "2013-04-30T22:00:00Z", "bemaerkning": "Sølund" } }, { "type": "Feature", "id": "p_hus.28", "geometry": { "type": "Point", "coordinates": [12.594131623216867, 55.680825736076095] }, "geometry_name": "wkb_geometry", "properties": { "id": 108, "vejkode": "6232", "vejnavn": "Sankt Annæ Plads", "husnr": null, "postdistrikt": null, "antal_pladser": 500, "ejer_status": "Privat", "p_hus_type": "0", "type_beskrivelse": "", "opret_dato": "2019-10-09T22:00:00Z", "ret_dato": null, "bemaerkning": "Jeudan Parkering Skt. Annæ Plads / Kvæsthusmolen" } }, { "type": "Feature", "id": "p_hus.29", "geometry": { "type": "Point", "coordinates": [12.579741748315502, 55.67985691403492] }, "geometry_name": "wkb_geometry", "properties": { "id": 5, "vejkode": "6392", "vejnavn": "Silkegade", "husnr": "4", "postdistrikt": "1113 København K", "antal_pladser": 140, "ejer_status": "Privat", "p_hus_type": "1", "type_beskrivelse": "P-Hus", "opret_dato": "2001-05-29T22:00:00Z", "ret_dato": null, "bemaerkning": "Silkegade 4, Illum" } }, { "type": "Feature", "id": "p_hus.30", "geometry": { "type": "Point", "coordinates": [12.569308276126753, 55.67178965859572] }, "geometry_name": "wkb_geometry", "properties": { "id": 100, "vejkode": "7444", "vejnavn": "Tietgensgade", "husnr": "31CE", "postdistrikt": "1704 København V", "antal_pladser": 13, "ejer_status": null, "p_hus_type": "5", "type_beskrivelse": "", "opret_dato": null, "ret_dato": null, "bemaerkning": "Åbnede kommunale p-pladser. Adgangskontrol ved indkørsel fra Tietgensgade" } }, { "type": "Feature", "id": "p_hus.31", "geometry": { "type": "Point", "coordinates": [12.598048055798772, 55.6651551945516] }, "geometry_name": "wkb_geometry", "properties": { "id": 55, "vejkode": "7844", "vejnavn": "Under Elmene", "husnr": "5", "postdistrikt": "2300 København S", "antal_pladser": 266, "ejer_status": "Kommune", "p_hus_type": "3", "type_beskrivelse": "Underjordisk P-anlæg", "opret_dato": "2011-09-21T14:24:00Z", "ret_dato": null, "bemaerkning": "Underjordisk P-anlæg, ibrugtaget april 2011 og drevet af Center for Parkering." } }]